{
"type": "FeatureCollection",
"name": "elfiskelokaler_wgs84",
"crs": { "type": "name", "properties": { "name": "urn:ogc:def:crs:OGC:1.3:CRS84" } },
"features": [
{ "type": "Feature", "properties": { "Elfiskelokal_S99TM_N": "6155030", "Elfiskelokal_S99TM_E": "451355", "Elfiskelokal_xkoord_RT90": "6157720", "Elfiskelokal_ykoord_RT90": "1400500", "Vattendragsnamn": "Kippersbäcken", "Lokalnamn": "6157720-1400500 Idrottsplatsen", "link": "https:\/\/aquarapport.slu.se\/default.aspx?ID=98&X=6157720&Y=1400500", "srk": "1" }, "geometry": { "type": "Point", "coordinates": [ 14.229174522062344, 55.538880720811832 ] } },
{ "type": "Feature", "properties": { "Elfiskelokal_S99TM_N": "6154289", "Elfiskelokal_S99TM_E": "453812", "Elfiskelokal_xkoord_RT90": "6156950", "Elfiskelokal_ykoord_RT90": "1402950", "Vattendragsnamn": "Tommarpsån", "Lokalnamn": "6156950-1402950 Gisslingabro", "link": "https:\/\/aquarapport.slu.se\/default.aspx?ID=98&X=6156950&Y=1402950", "srk": "1" }, "geometry": { "type": "Point", "coordinates": [ 14.268227968486892, 55.532461620268727 ] } },
{ "type": "Feature", "properties": { "Elfiskelokal_S99TM_N": "6157203", "Elfiskelokal_S99TM_E": "444872", "Elfiskelokal_xkoord_RT90": "6159970", "Elfiskelokal_ykoord_RT90": "1394040", "Vattendragsnamn": "Tommarpsån", "Lokalnamn": "6159970-1394040 Gårdslösa upp bron", "link": "https:\/\/aquarapport.slu.se\/default.aspx?ID=98&X=6159970&Y=1394040", "srk": "1" }, "geometry": { "type": "Point", "coordinates": [ 14.12602483896965, 55.557714971115836 ] } },
{ "type": "Feature", "properties": { "Elfiskelokal_S99TM_N": "6162458", "Elfiskelokal_S99TM_E": "445471", "Elfiskelokal_xkoord_RT90": "6165220", "Elfiskelokal_ykoord_RT90": "1394700", "Vattendragsnamn": "Björnbäcken", "Lokalnamn": "6165220-1394700 1 km N Tunnbyholmssj", "link": "https:\/\/aquarapport.slu.se\/default.aspx?ID=98&X=6165220&Y=1394700", "srk": "0" }, "geometry": { "type": "Point", "coordinates": [ 14.134481782681174, 55.604996044609415 ] } },
{ "type": "Feature", "properties": { "Elfiskelokal_S99TM_N": "6164838", "Elfiskelokal_S99TM_E": "444694", "Elfiskelokal_xkoord_RT90": "6167610", "Elfiskelokal_ykoord_RT90": "1393950", "Vattendragsnamn": "Björnbäcken", "Lokalnamn": "6167610-1393950 300 m NV Måsalycka", "link": "https:\/\/aquarapport.slu.se\/default.aspx?ID=98&X=6167610&Y=1393950", "srk": "0" }, "geometry": { "type": "Point", "coordinates": [ 14.121672474061677, 55.62629140088935 ] } },
{ "type": "Feature", "properties": { "Elfiskelokal_S99TM_N": "6178685", "Elfiskelokal_S99TM_E": "433798", "Elfiskelokal_xkoord_RT90": "6181590", "Elfiskelokal_ykoord_RT90": "1383210", "Vattendragsnamn": "Bäck 15 km NO Illst", "Lokalnamn": "6181590-1383210 15 km NO Illstorp", "link": "https:\/\/aquarapport.slu.se\/default.aspx?ID=98&X=6181590&Y=1383210", "srk": "0" }, "geometry": { "type": "Point", "coordinates": [ 13.945317354370193, 55.749330561754633 ] } },
{ "type": "Feature", "properties": { "Elfiskelokal_S99TM_N": "6152388", "Elfiskelokal_S99TM_E": "458832", "Elfiskelokal_xkoord_RT90": "6154990", "Elfiskelokal_ykoord_RT90": "1407950", "Vattendragsnamn": "Bäck vid Brantevik", "Lokalnamn": "6154990-1407950 Lokalnamn saknas", "link": "https:\/\/aquarapport.slu.se\/default.aspx?ID=98&X=6154990&Y=1407950", "srk": "0" }, "geometry": { "type": "Point", "coordinates": [ 14.348037907471801, 55.515830170242445 ] } },
{ "type": "Feature", "properties": { "Elfiskelokal_S99TM_N": "6148301", "Elfiskelokal_S99TM_E": "454672", "Elfiskelokal_xkoord_RT90": "6150950", "Elfiskelokal_ykoord_RT90": "1403740", "Vattendragsnamn": "Bäck vid skillinge", "Lokalnamn": "6150950-1403740 Lokalnamn saknas", "link": "https:\/\/aquarapport.slu.se\/default.aspx?ID=98&X=6150950&Y=1403740", "srk": "0" }, "geometry": { "type": "Point", "coordinates": [ 14.282830696814818, 55.478740248884705 ] } },
{ "type": "Feature", "properties": { "Elfiskelokal_S99TM_N": "6184110", "Elfiskelokal_S99TM_E": "431026", "Elfiskelokal_xkoord_RT90": "6187050", "Elfiskelokal_ykoord_RT90": "1380500", "Vattendragsnamn": "Bäck vid Skärhus", "Lokalnamn": "6187050-1380500 5 km NO Långaröd", "link": "https:\/\/aquarapport.slu.se\/default.aspx?ID=98&X=6187050&Y=1380500", "srk": "0" }, "geometry": { "type": "Point", "coordinates": [ 13.899792719388316, 55.797679826098666 ] } },
{ "type": "Feature", "properties": { "Elfiskelokal_S99TM_N": "6183731", "Elfiskelokal_S99TM_E": "437927", "Elfiskelokal_xkoord_RT90": "6186590", "Elfiskelokal_ykoord_RT90": "1387400", "Vattendragsnamn": "Gaddarödsån", "Lokalnamn": "6186590-1387400 V Gaddaröd", "link": "https:\/\/aquarapport.slu.se\/default.aspx?ID=98&X=6186590&Y=1387400", "srk": "0" }, "geometry": { "type": "Point", "coordinates": [ 14.009937777678511, 55.795210384690627 ] } },
{ "type": "Feature", "properties": { "Elfiskelokal_S99TM_N": "6183909", "Elfiskelokal_S99TM_E": "439524", "Elfiskelokal_xkoord_RT90": "6186750", "Elfiskelokal_ykoord_RT90": "1389000", "Vattendragsnamn": "Gaddarödsån", "Lokalnamn": "6186750-1389000 Gaddaröd", "link": "https:\/\/aquarapport.slu.se\/default.aspx?ID=98&X=6186750&Y=1389000", "srk": "0" }, "geometry": { "type": "Point", "coordinates": [ 14.035366235834983, 55.797011952185997 ] } },
{ "type": "Feature", "properties": { "Elfiskelokal_S99TM_N": "6184256", "Elfiskelokal_S99TM_E": "439270", "Elfiskelokal_xkoord_RT90": "6187100", "Elfiskelokal_ykoord_RT90": "1388750", "Vattendragsnamn": "Gaddarödsån", "Lokalnamn": "6187100-1388750 Gaddarödskorset", "link": "https:\/\/aquarapport.slu.se\/default.aspx?ID=98&X=6187100&Y=1388750", "srk": "0" }, "geometry": { "type": "Point", "coordinates": [ 14.031238014826499, 55.800097540829825 ] } },
{ "type": "Feature", "properties": { "Elfiskelokal_S99TM_N": "6165014", "Elfiskelokal_S99TM_E": "452928", "Elfiskelokal_xkoord_RT90": "6167690", "Elfiskelokal_ykoord_RT90": "1402190", "Vattendragsnamn": "Horrödsbäcken", "Lokalnamn": "6167690-1402190 Nedstr dammen", "link": "https:\/\/aquarapport.slu.se\/default.aspx?ID=98&X=6167690&Y=1402190", "srk": "0" }, "geometry": { "type": "Point", "coordinates": [ 14.252394880335096, 55.628739141140272 ] } },
{ "type": "Feature", "properties": { "Elfiskelokal_S99TM_N": "6165283", "Elfiskelokal_S99TM_E": "452905", "Elfiskelokal_xkoord_RT90": "6167960", "Elfiskelokal_ykoord_RT90": "1402170", "Vattendragsnamn": "Horrödsbäcken", "Lokalnamn": "6167960-1402170 Uppstr dammen", "link": "https:\/\/aquarapport.slu.se\/default.aspx?ID=98&X=6167960&Y=1402170", "srk": "0" }, "geometry": { "type": "Point", "coordinates": [ 14.251983588973797, 55.631153805252346 ] } },
{ "type": "Feature", "properties": { "Elfiskelokal_S99TM_N": "6181994", "Elfiskelokal_S99TM_E": "442445", "Elfiskelokal_xkoord_RT90": "6184800", "Elfiskelokal_ykoord_RT90": "1391900", "Vattendragsnamn": "Hörrödsån", "Lokalnamn": "6184800-1391900 1 km V Lillehem", "link": "https:\/\/aquarapport.slu.se\/default.aspx?ID=98&X=6184800&Y=1391900", "srk": "0" }, "geometry": { "type": "Point", "coordinates": [ 14.082355851593, 55.780164013395712 ] } },
{ "type": "Feature", "properties": { "Elfiskelokal_S99TM_N": "6182115", "Elfiskelokal_S99TM_E": "439045", "Elfiskelokal_xkoord_RT90": "6184960", "Elfiskelokal_ykoord_RT90": "1388500", "Vattendragsnamn": "Hörrödsån", "Lokalnamn": "6184960-1388500 600 m NV Hörröds k-a", "link": "https:\/\/aquarapport.slu.se\/default.aspx?ID=98&X=6184960&Y=1388500", "srk": "0" }, "geometry": { "type": "Point", "coordinates": [ 14.028128461648233, 55.780834563191718 ] } },
{ "type": "Feature", "properties": { "Elfiskelokal_S99TM_N": "6182370", "Elfiskelokal_S99TM_E": "442051", "Elfiskelokal_xkoord_RT90": "6185180", "Elfiskelokal_ykoord_RT90": "1391510", "Vattendragsnamn": "Hörrödsån", "Lokalnamn": "6185180-1391510 SV Trusseröd", "link": "https:\/\/aquarapport.slu.se\/default.aspx?ID=98&X=6185180&Y=1391510", "srk": "0" }, "geometry": { "type": "Point", "coordinates": [ 14.07599497803767, 55.783494991103197 ] } },
{ "type": "Feature", "properties": { "Elfiskelokal_S99TM_N": "6180040", "Elfiskelokal_S99TM_E": "447116", "Elfiskelokal_xkoord_RT90": "6182790", "Elfiskelokal_ykoord_RT90": "1396550", "Vattendragsnamn": "Julebodaån", "Lokalnamn": "6182790-1396550 Ned Blåherremölla", "link": "https:\/\/aquarapport.slu.se\/default.aspx?ID=98&X=6182790&Y=1396550", "srk": "0" }, "geometry": { "type": "Point", "coordinates": [ 14.157198666496459, 55.763141932650846 ] } },
{ "type": "Feature", "properties": { "Elfiskelokal_S99TM_N": "6179597", "Elfiskelokal_S99TM_E": "449480", "Elfiskelokal_xkoord_RT90": "6182320", "Elfiskelokal_ykoord_RT90": "1398910", "Vattendragsnamn": "Julebodaån", "Lokalnamn": "6182320-1398910 Mynningen", "link": "https:\/\/aquarapport.slu.se\/default.aspx?ID=98&X=6182320&Y=1398910", "srk": "0" }, "geometry": { "type": "Point", "coordinates": [ 14.194950974159369, 55.759414368385073 ] } },
{ "type": "Feature", "properties": { "Elfiskelokal_S99TM_N": "6179891", "Elfiskelokal_S99TM_E": "446418", "Elfiskelokal_xkoord_RT90": "6182650", "Elfiskelokal_ykoord_RT90": "1395850", "Vattendragsnamn": "Julebodaån", "Lokalnamn": "6182650-1395850 Reningsverket", "link": "https:\/\/aquarapport.slu.se\/default.aspx?ID=98&X=6182650&Y=1395850", "srk": "0" }, "geometry": { "type": "Point", "coordinates": [ 14.146105418383705, 55.761726503243835 ] } },
{ "type": "Feature", "properties": { "Elfiskelokal_S99TM_N": "6180246", "Elfiskelokal_S99TM_E": "449383", "Elfiskelokal_xkoord_RT90": "6182970", "Elfiskelokal_ykoord_RT90": "1398820", "Vattendragsnamn": "Julebodaån", "Lokalnamn": "6182970-1398820 Stora Juleboda", "link": "https:\/\/aquarapport.slu.se\/default.aspx?ID=98&X=6182970&Y=1398820", "srk": "0" }, "geometry": { "type": "Point", "coordinates": [ 14.193285051669994, 55.765235112590418 ] } },
{ "type": "Feature", "properties": { "Elfiskelokal_S99TM_N": "6180374", "Elfiskelokal_S99TM_E": "444893", "Elfiskelokal_xkoord_RT90": "6183150", "Elfiskelokal_ykoord_RT90": "1394330", "Vattendragsnamn": "Julebodaån", "Lokalnamn": "6183150-1394330 L Drakamöllan", "link": "https:\/\/aquarapport.slu.se\/default.aspx?ID=98&X=6183150&Y=1394330", "srk": "0" }, "geometry": { "type": "Point", "coordinates": [ 14.121708301962791, 55.765894669460891 ] } },
{ "type": "Feature", "properties": { "Elfiskelokal_S99TM_N": "6180676", "Elfiskelokal_S99TM_E": "437403", "Elfiskelokal_xkoord_RT90": "6183540", "Elfiskelokal_ykoord_RT90": "1386840", "Vattendragsnamn": "Julebodaån", "Lokalnamn": "6183540-1386840 N Agusa", "link": "https:\/\/aquarapport.slu.se\/default.aspx?ID=98&X=6183540&Y=1386840", "srk": "0" }, "geometry": { "type": "Point", "coordinates": [ 14.002282994771411, 55.767696998944217 ] } },
{ "type": "Feature", "properties": { "Elfiskelokal_S99TM_N": "6171433", "Elfiskelokal_S99TM_E": "445407", "Elfiskelokal_xkoord_RT90": "6174200", "Elfiskelokal_ykoord_RT90": "1394740", "Vattendragsnamn": "Klammersbäck", "Lokalnamn": "6174200-1394740 Löddehus", "link": "https:\/\/aquarapport.slu.se\/default.aspx?ID=98&X=6174200&Y=1394740", "srk": "0" }, "geometry": { "type": "Point", "coordinates": [ 14.131683832527173, 55.685624182989848 ] } },
{ "type": "Feature", "properties": { "Elfiskelokal_S99TM_N": "6171675", "Elfiskelokal_S99TM_E": "445544", "Elfiskelokal_xkoord_RT90": "6174440", "Elfiskelokal_ykoord_RT90": "1394880", "Vattendragsnamn": "Klammersbäck", "Lokalnamn": "6174440-1394880 Skogsholm", "link": "https:\/\/aquarapport.slu.se\/default.aspx?ID=98&X=6174440&Y=1394880", "srk": "0" }, "geometry": { "type": "Point", "coordinates": [ 14.133814514076736, 55.687813791349271 ] } },
{ "type": "Feature", "properties": { "Elfiskelokal_S99TM_N": "6172301", "Elfiskelokal_S99TM_E": "446056", "Elfiskelokal_xkoord_RT90": "6175060", "Elfiskelokal_ykoord_RT90": "1395400", "Vattendragsnamn": "Klammersbäck", "Lokalnamn": "6175060-1395400 Torupshus", "link": "https:\/\/aquarapport.slu.se\/default.aspx?ID=98&X=6175060&Y=1395400", "srk": "0" }, "geometry": { "type": "Point", "coordinates": [ 14.141834252373428, 55.69349519451103 ] } },
{ "type": "Feature", "properties": { "Elfiskelokal_S99TM_N": "6173099", "Elfiskelokal_S99TM_E": "446847", "Elfiskelokal_xkoord_RT90": "6175850", "Elfiskelokal_ykoord_RT90": "1396200", "Vattendragsnamn": "Klammersbäck", "Lokalnamn": "6175850-1396200 Persvattenhuset", "link": "https:\/\/aquarapport.slu.se\/default.aspx?ID=98&X=6175850&Y=1396200", "srk": "0" }, "geometry": { "type": "Point", "coordinates": [ 14.154261502788046, 55.700752040894265 ] } },
{ "type": "Feature", "properties": { "Elfiskelokal_S99TM_N": "6173808", "Elfiskelokal_S99TM_E": "447638", "Elfiskelokal_xkoord_RT90": "6176550", "Elfiskelokal_ykoord_RT90": "1397000", "Vattendragsnamn": "Klammersbäck", "Lokalnamn": "6176550-1397000 Ängdala", "link": "https:\/\/aquarapport.slu.se\/default.aspx?ID=98&X=6176550&Y=1397000", "srk": "0" }, "geometry": { "type": "Point", "coordinates": [ 14.166710375884247, 55.707208021820968 ] } },
{ "type": "Feature", "properties": { "Elfiskelokal_S99TM_N": "6173864", "Elfiskelokal_S99TM_E": "448137", "Elfiskelokal_xkoord_RT90": "6176600", "Elfiskelokal_ykoord_RT90": "1397500", "Vattendragsnamn": "Klammersbäck", "Lokalnamn": "6176600-1397500 Ängdala", "link": "https:\/\/aquarapport.slu.se\/default.aspx?ID=98&X=6176600&Y=1397500", "srk": "0" }, "geometry": { "type": "Point", "coordinates": [ 14.1746399344045, 55.707764766007493 ] } },
{ "type": "Feature", "properties": { "Elfiskelokal_S99TM_N": "6178763", "Elfiskelokal_S99TM_E": "448190", "Elfiskelokal_xkoord_RT90": "6181500", "Elfiskelokal_ykoord_RT90": "1397610", "Vattendragsnamn": "Knäbäcken", "Lokalnamn": "6181500-1397610 Ravlunda skjutfält", "link": "https:\/\/aquarapport.slu.se\/default.aspx?ID=98&X=6181500&Y=1397610", "srk": "0" }, "geometry": { "type": "Point", "coordinates": [ 14.174555128674232, 55.751785053553725 ] } },
{ "type": "Feature", "properties": { "Elfiskelokal_S99TM_N": "6178917", "Elfiskelokal_S99TM_E": "449408", "Elfiskelokal_xkoord_RT90": "6181640", "Elfiskelokal_ykoord_RT90": "1398830", "Vattendragsnamn": "Knäbäcken", "Lokalnamn": "6181640-1398830 Lokalnamn saknas", "link": "https:\/\/aquarapport.slu.se\/default.aspx?ID=98&X=6181640&Y=1398830", "srk": "0" }, "geometry": { "type": "Point", "coordinates": [ 14.193929778038259, 55.753297448119589 ] } },
{ "type": "Feature", "properties": { "Elfiskelokal_S99TM_N": "6157262", "Elfiskelokal_S99TM_E": "444732", "Elfiskelokal_xkoord_RT90": "6160030", "Elfiskelokal_ykoord_RT90": "1393900", "Vattendragsnamn": "Komstadsån", "Lokalnamn": "6160030-1393900 Gårdslösa", "link": "https:\/\/aquarapport.slu.se\/default.aspx?ID=98&X=6160030&Y=1393900", "srk": "0" }, "geometry": { "type": "Point", "coordinates": [ 14.123793834737736, 55.558229214649231 ] } },
{ "type": "Feature", "properties": { "Elfiskelokal_S99TM_N": "6171040", "Elfiskelokal_S99TM_E": "451949", "Elfiskelokal_xkoord_RT90": "6173730", "Elfiskelokal_ykoord_RT90": "1401280", "Vattendragsnamn": "Kungabäcken", "Lokalnamn": "6173730-1401280 Sågmöllan ned väg", "link": "https:\/\/aquarapport.slu.se\/default.aspx?ID=98&X=6173730&Y=1401280", "srk": "0" }, "geometry": { "type": "Point", "coordinates": [ 14.235793847055231, 55.682784931769675 ] } },
{ "type": "Feature", "properties": { "Elfiskelokal_S99TM_N": "6171060", "Elfiskelokal_S99TM_E": "451968", "Elfiskelokal_xkoord_RT90": "6173750", "Elfiskelokal_ykoord_RT90": "1401300", "Vattendragsnamn": "Kungabäcken", "Lokalnamn": "6173750-1401300 Kungagraven", "link": "https:\/\/aquarapport.slu.se\/default.aspx?ID=98&X=6173750&Y=1401300", "srk": "0" }, "geometry": { "type": "Point", "coordinates": [ 14.236092491593913, 55.68296650428605 ] } },
{ "type": "Feature", "properties": { "Elfiskelokal_S99TM_N": "6147826", "Elfiskelokal_S99TM_E": "451638", "Elfiskelokal_xkoord_RT90": "6150510", "Elfiskelokal_ykoord_RT90": "1400700", "Vattendragsnamn": "Kvarnbybäcken", "Lokalnamn": "6150510-1400700 Ö hoby ned väg", "link": "https:\/\/aquarapport.slu.se\/default.aspx?ID=98&X=6150510&Y=1400700", "srk": "0" }, "geometry": { "type": "Point", "coordinates": [ 14.234914758943214, 55.474181857020021 ] } },
{ "type": "Feature", "properties": { "Elfiskelokal_S99TM_N": "6147454", "Elfiskelokal_S99TM_E": "453992", "Elfiskelokal_xkoord_RT90": "6150110", "Elfiskelokal_ykoord_RT90": "1403050", "Vattendragsnamn": "Kvarnbybäcken", "Lokalnamn": "6150110-1403050 Skillinge Borrbyv.", "link": "https:\/\/aquarapport.slu.se\/default.aspx?ID=98&X=6150110&Y=1403050", "srk": "0" }, "geometry": { "type": "Point", "coordinates": [ 14.27221309479598, 55.47106647472237 ] } },
{ "type": "Feature", "properties": { "Elfiskelokal_S99TM_N": "6147179", "Elfiskelokal_S99TM_E": "454465", "Elfiskelokal_xkoord_RT90": "6149830", "Elfiskelokal_ykoord_RT90": "1403520", "Vattendragsnamn": "Kvarnbybäcken", "Lokalnamn": "6149830-1403520 Hobybäcken upp väg", "link": "https:\/\/aquarapport.slu.se\/default.aspx?ID=98&X=6149830&Y=1403520", "srk": "0" }, "geometry": { "type": "Point", "coordinates": [ 14.279739725781447, 55.468639843283334 ] } },
{ "type": "Feature", "properties": { "Elfiskelokal_S99TM_N": "6147445", "Elfiskelokal_S99TM_E": "454092", "Elfiskelokal_xkoord_RT90": "6150100", "Elfiskelokal_ykoord_RT90": "1403150", "Vattendragsnamn": "Kvarnbybäcken", "Lokalnamn": "6150100-1403150 Hobybäcken", "link": "https:\/\/aquarapport.slu.se\/default.aspx?ID=98&X=6150100&Y=1403150", "srk": "0" }, "geometry": { "type": "Point", "coordinates": [ 14.273796309261257, 55.470995002484131 ] } },
{ "type": "Feature", "properties": { "Elfiskelokal_S99TM_N": "6160853", "Elfiskelokal_S99TM_E": "448409", "Elfiskelokal_xkoord_RT90": "6163580", "Elfiskelokal_ykoord_RT90": "1397620", "Vattendragsnamn": "Listarumsån", "Lokalnamn": "6163580-1397620 Utflöde Gyllebosjön", "link": "https:\/\/aquarapport.slu.se\/default.aspx?ID=98&X=6163580&Y=1397620", "srk": "0" }, "geometry": { "type": "Point", "coordinates": [ 14.181410354420814, 55.590895928382309 ] } },
{ "type": "Feature", "properties": { "Elfiskelokal_S99TM_N": "6161182", "Elfiskelokal_S99TM_E": "448345", "Elfiskelokal_xkoord_RT90": "6163910", "Elfiskelokal_ykoord_RT90": "1397560", "Vattendragsnamn": "Listarumsån", "Lokalnamn": "6163910-1397560 Sjöröd", "link": "https:\/\/aquarapport.slu.se\/default.aspx?ID=98&X=6163910&Y=1397560", "srk": "0" }, "geometry": { "type": "Point", "coordinates": [ 14.180333377920871, 55.593845087249385 ] } },
{ "type": "Feature", "properties": { "Elfiskelokal_S99TM_N": "6161840", "Elfiskelokal_S99TM_E": "449017", "Elfiskelokal_xkoord_RT90": "6164560", "Elfiskelokal_ykoord_RT90": "1398240", "Vattendragsnamn": "Listarumsån", "Lokalnamn": "6164560-1398240 Rygård", "link": "https:\/\/aquarapport.slu.se\/default.aspx?ID=98&X=6164560&Y=1398240", "srk": "0" }, "geometry": { "type": "Point", "coordinates": [ 14.190873887679102, 55.599827785728486 ] } },
{ "type": "Feature", "properties": { "Elfiskelokal_S99TM_N": "6172785", "Elfiskelokal_S99TM_E": "439544", "Elfiskelokal_xkoord_RT90": "6175620", "Elfiskelokal_ykoord_RT90": "1388890", "Vattendragsnamn": "Lönnbäck", "Lokalnamn": "6175620-1388890 Eljaröd kyrkan", "link": "https:\/\/aquarapport.slu.se\/default.aspx?ID=98&X=6175620&Y=1388890", "srk": "0" }, "geometry": { "type": "Point", "coordinates": [ 14.038147114899973, 55.697075925071395 ] } },
{ "type": "Feature", "properties": { "Elfiskelokal_S99TM_N": "6172841", "Elfiskelokal_S99TM_E": "449509", "Elfiskelokal_xkoord_RT90": "6175560", "Elfiskelokal_ykoord_RT90": "1398860", "Vattendragsnamn": "Mölleån", "Lokalnamn": "6175560-1398860 Vitemölla upp väg 9", "link": "https:\/\/aquarapport.slu.se\/default.aspx?ID=98&X=6175560&Y=1398860", "srk": "0" }, "geometry": { "type": "Point", "coordinates": [ 14.196660393534165, 55.698718398573092 ] } },
{ "type": "Feature", "properties": { "Elfiskelokal_S99TM_N": "6169574", "Elfiskelokal_S99TM_E": "446238", "Elfiskelokal_xkoord_RT90": "6172330", "Elfiskelokal_ykoord_RT90": "1395550", "Vattendragsnamn": "Mölleån", "Lokalnamn": "6172330-1395550 4 km SV Vitaby", "link": "https:\/\/aquarapport.slu.se\/default.aspx?ID=98&X=6172330&Y=1395550", "srk": "0" }, "geometry": { "type": "Point", "coordinates": [ 14.145263714075748, 55.66901490077953 ] } },
{ "type": "Feature", "properties": { "Elfiskelokal_S99TM_N": "6171759", "Elfiskelokal_S99TM_E": "447652", "Elfiskelokal_xkoord_RT90": "6174500", "Elfiskelokal_ykoord_RT90": "1396990", "Vattendragsnamn": "Mölleån", "Lokalnamn": "6174500-1396990 Krubbemölla", "link": "https:\/\/aquarapport.slu.se\/default.aspx?ID=98&X=6174500&Y=1396990", "srk": "0" }, "geometry": { "type": "Point", "coordinates": [ 14.167324594846649, 55.688800418500001 ] } },
{ "type": "Feature", "properties": { "Elfiskelokal_S99TM_N": "6173066", "Elfiskelokal_S99TM_E": "449996", "Elfiskelokal_xkoord_RT90": "6175780", "Elfiskelokal_ykoord_RT90": "1399350", "Vattendragsnamn": "Mölleån", "Lokalnamn": "6175780-1399350 Vitemölla upp bro", "link": "https:\/\/aquarapport.slu.se\/default.aspx?ID=98&X=6175780&Y=1399350", "srk": "0" }, "geometry": { "type": "Point", "coordinates": [ 14.204366924567696, 55.700790352925736 ] } },
{ "type": "Feature", "properties": { "Elfiskelokal_S99TM_N": "6161409", "Elfiskelokal_S99TM_E": "455839", "Elfiskelokal_xkoord_RT90": "6164050", "Elfiskelokal_ykoord_RT90": "1405060", "Vattendragsnamn": "Oderbäcken", "Lokalnamn": "6164050-1405060 Tjörnedala ned damm", "link": "https:\/\/aquarapport.slu.se\/default.aspx?ID=98&X=6164050&Y=1405060", "srk": "0" }, "geometry": { "type": "Point", "coordinates": [ 14.299201741802124, 55.596621779254029 ] } },
{ "type": "Feature", "properties": { "Elfiskelokal_S99TM_N": "6160530", "Elfiskelokal_S99TM_E": "454989", "Elfiskelokal_xkoord_RT90": "6163180", "Elfiskelokal_ykoord_RT90": "1404200", "Vattendragsnamn": "Oderbäcken", "Lokalnamn": "6163180-1404200 Stenaberga", "link": "https:\/\/aquarapport.slu.se\/default.aspx?ID=98&X=6163180&Y=1404200", "srk": "0" }, "geometry": { "type": "Point", "coordinates": [ 14.285857552307352, 55.588646282690185 ] } },
{ "type": "Feature", "properties": { "Elfiskelokal_S99TM_N": "6161461", "Elfiskelokal_S99TM_E": "455978", "Elfiskelokal_xkoord_RT90": "6164100", "Elfiskelokal_ykoord_RT90": "1405200", "Vattendragsnamn": "Oderbäcken", "Lokalnamn": "6164100-1405200 Nedstr Tjörnedala", "link": "https:\/\/aquarapport.slu.se\/default.aspx?ID=98&X=6164100&Y=1405200", "srk": "0" }, "geometry": { "type": "Point", "coordinates": [ 14.30139907053641, 55.597101576800327 ] } },
{ "type": "Feature", "properties": { "Elfiskelokal_S99TM_N": "6164188", "Elfiskelokal_S99TM_E": "443812", "Elfiskelokal_xkoord_RT90": "6166970", "Elfiskelokal_ykoord_RT90": "1393060", "Vattendragsnamn": "Röbäcken", "Lokalnamn": "6166970-1393060 1 km SV Måsalycke", "link": "https:\/\/aquarapport.slu.se\/default.aspx?ID=98&X=6166970&Y=1393060", "srk": "0" }, "geometry": { "type": "Point", "coordinates": [ 14.107799777617705, 55.620350464654322 ] } },
{ "type": "Feature", "properties": { "Elfiskelokal_S99TM_N": "6167041", "Elfiskelokal_S99TM_E": "453614", "Elfiskelokal_xkoord_RT90": "6169710", "Elfiskelokal_ykoord_RT90": "1402900", "Vattendragsnamn": "Rörums Norra å", "Lokalnamn": "6169710-1402900 Rörums strand", "link": "https:\/\/aquarapport.slu.se\/default.aspx?ID=98&X=6169710&Y=1402900", "srk": "0" }, "geometry": { "type": "Point", "coordinates": [ 14.262947177237788, 55.647017096562863 ] } },
{ "type": "Feature", "properties": { "Elfiskelokal_S99TM_N": "6166635", "Elfiskelokal_S99TM_E": "451420", "Elfiskelokal_xkoord_RT90": "6169330", "Elfiskelokal_ykoord_RT90": "1400700", "Vattendragsnamn": "Rörums Norra å", "Lokalnamn": "6169330-1400700 Tångedala", "link": "https:\/\/aquarapport.slu.se\/default.aspx?ID=98&X=6169330&Y=1400700", "srk": "0" }, "geometry": { "type": "Point", "coordinates": [ 14.228160706454238, 55.643155015747809 ] } },
{ "type": "Feature", "properties": { "Elfiskelokal_S99TM_N": "6167011", "Elfiskelokal_S99TM_E": "453615", "Elfiskelokal_xkoord_RT90": "6169680", "Elfiskelokal_ykoord_RT90": "1402900", "Vattendragsnamn": "Rörums Norra å", "Lokalnamn": "6169680-1402900 Stenshuvuds natpark", "link": "https:\/\/aquarapport.slu.se\/default.aspx?ID=98&X=6169680&Y=1402900", "srk": "0" }, "geometry": { "type": "Point", "coordinates": [ 14.262968127490984, 55.646747650390012 ] } },
{ "type": "Feature", "properties": { "Elfiskelokal_S99TM_N": "6165246", "Elfiskelokal_S99TM_E": "454015", "Elfiskelokal_xkoord_RT90": "6167910", "Elfiskelokal_ykoord_RT90": "1403280", "Vattendragsnamn": "Rörums Södra å", "Lokalnamn": "6167910-1403280 O Rödingsborg", "link": "https:\/\/aquarapport.slu.se\/default.aspx?ID=98&X=6167910&Y=1403280", "srk": "0" }, "geometry": { "type": "Point", "coordinates": [ 14.269618430494418, 55.630927580062739 ] } },
{ "type": "Feature", "properties": { "Elfiskelokal_S99TM_N": "6164753", "Elfiskelokal_S99TM_E": "452891", "Elfiskelokal_xkoord_RT90": "6167430", "Elfiskelokal_ykoord_RT90": "1402150", "Vattendragsnamn": "Rörums Södra å", "Lokalnamn": "6167430-1402150 Rörum", "link": "https:\/\/aquarapport.slu.se\/default.aspx?ID=98&X=6167430&Y=1402150", "srk": "0" }, "geometry": { "type": "Point", "coordinates": [ 14.251851970511424, 55.626390545820783 ] } },
{ "type": "Feature", "properties": { "Elfiskelokal_S99TM_N": "6165948", "Elfiskelokal_S99TM_E": "446430", "Elfiskelokal_xkoord_RT90": "6168700", "Elfiskelokal_ykoord_RT90": "1395700", "Vattendragsnamn": "Rörums Södra å", "Lokalnamn": "6168700-1395700 Raskarum", "link": "https:\/\/aquarapport.slu.se\/default.aspx?ID=98&X=6168700&Y=1395700", "srk": "0" }, "geometry": { "type": "Point", "coordinates": [ 14.149022730787491, 55.636458453581788 ] } },
{ "type": "Feature", "properties": { "Elfiskelokal_S99TM_N": "6168286", "Elfiskelokal_S99TM_E": "442955", "Elfiskelokal_xkoord_RT90": "6171080", "Elfiskelokal_ykoord_RT90": "1392250", "Vattendragsnamn": "Rörums Södra å", "Lokalnamn": "6171080-1392250 Gedingsmosse nv s-t", "link": "https:\/\/aquarapport.slu.se\/default.aspx?ID=98&X=6171080&Y=1392250", "srk": "0" }, "geometry": { "type": "Point", "coordinates": [ 14.093343542749615, 55.657068620500098 ] } },
{ "type": "Feature", "properties": { "Elfiskelokal_S99TM_N": "6163538", "Elfiskelokal_S99TM_E": "448987", "Elfiskelokal_xkoord_RT90": "6166260", "Elfiskelokal_ykoord_RT90": "1398230", "Vattendragsnamn": "Rörums Södra å bf", "Lokalnamn": "6166260-1398230 Nykulla gård 6 km V", "link": "https:\/\/aquarapport.slu.se\/default.aspx?ID=98&X=6166260&Y=1398230", "srk": "0" }, "geometry": { "type": "Point", "coordinates": [ 14.190083500782091, 55.615080535383115 ] } },
{ "type": "Feature", "properties": { "Elfiskelokal_S99TM_N": "6165673", "Elfiskelokal_S99TM_E": "448572", "Elfiskelokal_xkoord_RT90": "6168400", "Elfiskelokal_ykoord_RT90": "1397840", "Vattendragsnamn": "Rörums Södra å bf", "Lokalnamn": "6168400-1397840 Östrarödsgården", "link": "https:\/\/aquarapport.slu.se\/default.aspx?ID=98&X=6168400&Y=1397840", "srk": "0" }, "geometry": { "type": "Point", "coordinates": [ 14.18309656490057, 55.63421894389996 ] } },
{ "type": "Feature", "properties": { "Elfiskelokal_S99TM_N": "6184631", "Elfiskelokal_S99TM_E": "441375", "Elfiskelokal_xkoord_RT90": "6187450", "Elfiskelokal_ykoord_RT90": "1390860", "Vattendragsnamn": "Segesholmsån", "Lokalnamn": "6187450-1390860 Rallate upp bron", "link": "https:\/\/aquarapport.slu.se\/default.aspx?ID=98&X=6187450&Y=1390860", "srk": "0" }, "geometry": { "type": "Point", "coordinates": [ 14.064730998431719, 55.803726459377813 ] } },
{ "type": "Feature", "properties": { "Elfiskelokal_S99TM_N": "6184611", "Elfiskelokal_S99TM_E": "439696", "Elfiskelokal_xkoord_RT90": "6187450", "Elfiskelokal_ykoord_RT90": "1389180", "Vattendragsnamn": "Segesholmsån", "Lokalnamn": "6187450-1389180 Ebbaröd", "link": "https:\/\/aquarapport.slu.se\/default.aspx?ID=98&X=6187450&Y=1389180", "srk": "0" }, "geometry": { "type": "Point", "coordinates": [ 14.037953826191046, 55.803340187538332 ] } },
{ "type": "Feature", "properties": { "Elfiskelokal_S99TM_N": "6184661", "Elfiskelokal_S99TM_E": "441395", "Elfiskelokal_xkoord_RT90": "6187480", "Elfiskelokal_ykoord_RT90": "1390880", "Vattendragsnamn": "Segesholmsån", "Lokalnamn": "6187480-1390880 Rallate", "link": "https:\/\/aquarapport.slu.se\/default.aspx?ID=98&X=6187480&Y=1390880", "srk": "0" }, "geometry": { "type": "Point", "coordinates": [ 14.065043559732459, 55.803998406201522 ] } },
{ "type": "Feature", "properties": { "Elfiskelokal_S99TM_N": "6185267", "Elfiskelokal_S99TM_E": "450544", "Elfiskelokal_xkoord_RT90": "6187980", "Elfiskelokal_ykoord_RT90": "1400040", "Vattendragsnamn": "Segesholmsån", "Lokalnamn": "6187980-1400040 Utloppet", "link": "https:\/\/aquarapport.slu.se\/default.aspx?ID=98&X=6187980&Y=1400040", "srk": "0" }, "geometry": { "type": "Point", "coordinates": [ 14.210875258325808, 55.810465841871419 ] } },
{ "type": "Feature", "properties": { "Elfiskelokal_S99TM_N": "6187121", "Elfiskelokal_S99TM_E": "448323", "Elfiskelokal_xkoord_RT90": "6189860", "Elfiskelokal_ykoord_RT90": "1397840", "Vattendragsnamn": "Segesholmsån", "Lokalnamn": "6189860-1397840 Söderäng", "link": "https:\/\/aquarapport.slu.se\/default.aspx?ID=98&X=6189860&Y=1397840", "srk": "0" }, "geometry": { "type": "Point", "coordinates": [ 14.175088476290759, 55.826890245964407 ] } },
{ "type": "Feature", "properties": { "Elfiskelokal_S99TM_N": "6187161", "Elfiskelokal_S99TM_E": "444084", "Elfiskelokal_xkoord_RT90": "6189950", "Elfiskelokal_ykoord_RT90": "1393600", "Vattendragsnamn": "Segesholmsån", "Lokalnamn": "6189950-1393600 Reningsverket Degebe", "link": "https:\/\/aquarapport.slu.se\/default.aspx?ID=98&X=6189950&Y=1393600", "srk": "0" }, "geometry": { "type": "Point", "coordinates": [ 14.107422656042854, 55.826777330643246 ] } },
{ "type": "Feature", "properties": { "Elfiskelokal_S99TM_N": "6187263", "Elfiskelokal_S99TM_E": "446792", "Elfiskelokal_xkoord_RT90": "6190020", "Elfiskelokal_ykoord_RT90": "1396310", "Vattendragsnamn": "Segesholmsån", "Lokalnamn": "6190020-1396310 Segesholm ovan vägen", "link": "https:\/\/aquarapport.slu.se\/default.aspx?ID=98&X=6190020&Y=1396310", "srk": "0" }, "geometry": { "type": "Point", "coordinates": [ 14.150624546463044, 55.827999722526968 ] } },
{ "type": "Feature", "properties": { "Elfiskelokal_S99TM_N": "6187375", "Elfiskelokal_S99TM_E": "446101", "Elfiskelokal_xkoord_RT90": "6190140", "Elfiskelokal_ykoord_RT90": "1395620", "Vattendragsnamn": "Segesholmsån", "Lokalnamn": "6190140-1395620 Segesholm pumphus", "link": "https:\/\/aquarapport.slu.se\/default.aspx?ID=98&X=6190140&Y=1395620", "srk": "0" }, "geometry": { "type": "Point", "coordinates": [ 14.139573079244164, 55.828929308611428 ] } },
{ "type": "Feature", "properties": { "Elfiskelokal_S99TM_N": "6187500", "Elfiskelokal_S99TM_E": "444870", "Elfiskelokal_xkoord_RT90": "6190280", "Elfiskelokal_ykoord_RT90": "1394390", "Vattendragsnamn": "Segesholmsån", "Lokalnamn": "6190280-1394390 Skjutbanan Degeberga", "link": "https:\/\/aquarapport.slu.se\/default.aspx?ID=98&X=6190280&Y=1394390", "srk": "0" }, "geometry": { "type": "Point", "coordinates": [ 14.11989899360214, 55.82991333419826 ] } },
{ "type": "Feature", "properties": { "Elfiskelokal_S99TM_N": "6183698", "Elfiskelokal_S99TM_E": "435089", "Elfiskelokal_xkoord_RT90": "6186590", "Elfiskelokal_ykoord_RT90": "1384560", "Vattendragsnamn": "Segesholmsån bf", "Lokalnamn": "6186590-1384560 Håleklöva", "link": "https:\/\/aquarapport.slu.se\/default.aspx?ID=98&X=6186590&Y=1384560", "srk": "0" }, "geometry": { "type": "Point", "coordinates": [ 13.964687758251726, 55.794541188261285 ] } },
{ "type": "Feature", "properties": { "Elfiskelokal_S99TM_N": "6158444", "Elfiskelokal_S99TM_E": "444098", "Elfiskelokal_xkoord_RT90": "6161220", "Elfiskelokal_ykoord_RT90": "1393280", "Vattendragsnamn": "Sillavadsån", "Lokalnamn": "6161220-1393280 Högalid", "link": "https:\/\/aquarapport.slu.se\/default.aspx?ID=98&X=6161220&Y=1393280", "srk": "0" }, "geometry": { "type": "Point", "coordinates": [ 14.11350477101648, 55.568776649045361 ] } },
{ "type": "Feature", "properties": { "Elfiskelokal_S99TM_N": "6158423", "Elfiskelokal_S99TM_E": "444029", "Elfiskelokal_xkoord_RT90": "6161200", "Elfiskelokal_ykoord_RT90": "1393210", "Vattendragsnamn": "Sillavadsån", "Lokalnamn": "6161200-1393210 1 km N Smedstorps k-", "link": "https:\/\/aquarapport.slu.se\/default.aspx?ID=98&X=6161200&Y=1393210", "srk": "0" }, "geometry": { "type": "Point", "coordinates": [ 14.11241496927726, 55.568580057714897 ] } },
{ "type": "Feature", "properties": { "Elfiskelokal_S99TM_N": "6159293", "Elfiskelokal_S99TM_E": "444908", "Elfiskelokal_xkoord_RT90": "6162060", "Elfiskelokal_ykoord_RT90": "1394100", "Vattendragsnamn": "Sillavadsån", "Lokalnamn": "6162060-1394100 Flagabro", "link": "https:\/\/aquarapport.slu.se\/default.aspx?ID=98&X=6162060&Y=1394100", "srk": "0" }, "geometry": { "type": "Point", "coordinates": [ 14.126178726008114, 55.576496719742728 ] } },
{ "type": "Feature", "properties": { "Elfiskelokal_S99TM_N": "6161684", "Elfiskelokal_S99TM_E": "442511", "Elfiskelokal_xkoord_RT90": "6164480", "Elfiskelokal_ykoord_RT90": "1391730", "Vattendragsnamn": "Sillavadsån", "Lokalnamn": "6164480-1391730 Snoggedal", "link": "https:\/\/aquarapport.slu.se\/default.aspx?ID=98&X=6164480&Y=1391730", "srk": "0" }, "geometry": { "type": "Point", "coordinates": [ 14.087666731692721, 55.597701608838712 ] } },
{ "type": "Feature", "properties": { "Elfiskelokal_S99TM_N": "6166874", "Elfiskelokal_S99TM_E": "440082", "Elfiskelokal_xkoord_RT90": "6169700", "Elfiskelokal_ykoord_RT90": "1389360", "Vattendragsnamn": "Sillavadsån", "Lokalnamn": "6169700-1389360 Kronovallsslott", "link": "https:\/\/aquarapport.slu.se\/default.aspx?ID=98&X=6169700&Y=1389360", "srk": "0" }, "geometry": { "type": "Point", "coordinates": [ 14.047995667062828, 55.644037138165572 ] } },
{ "type": "Feature", "properties": { "Elfiskelokal_S99TM_N": "6163611", "Elfiskelokal_S99TM_E": "453524", "Elfiskelokal_xkoord_RT90": "6166280", "Elfiskelokal_ykoord_RT90": "1402770", "Vattendragsnamn": "Skönabäcksån", "Lokalnamn": "6166280-1402770 Kulla nedstr", "link": "https:\/\/aquarapport.slu.se\/default.aspx?ID=98&X=6166280&Y=1402770", "srk": "0" }, "geometry": { "type": "Point", "coordinates": [ 14.262096604323835, 55.61619084151193 ] } },
{ "type": "Feature", "properties": { "Elfiskelokal_S99TM_N": "6164621", "Elfiskelokal_S99TM_E": "453543", "Elfiskelokal_xkoord_RT90": "6167290", "Elfiskelokal_ykoord_RT90": "1402800", "Vattendragsnamn": "Skönabäcksån", "Lokalnamn": "6167290-1402800 Nedstr dammen", "link": "https:\/\/aquarapport.slu.se\/default.aspx?ID=98&X=6167290&Y=1402800", "srk": "0" }, "geometry": { "type": "Point", "coordinates": [ 14.262227830260114, 55.625267260346838 ] } },
{ "type": "Feature", "properties": { "Elfiskelokal_S99TM_N": "6155022", "Elfiskelokal_S99TM_E": "447237", "Elfiskelokal_xkoord_RT90": "6157760", "Elfiskelokal_ykoord_RT90": "1396380", "Vattendragsnamn": "Tommarpsån", "Lokalnamn": "6157760-1396380 Ned Rogavadsmölla", "link": "https:\/\/aquarapport.slu.se\/default.aspx?ID=98&X=6157760&Y=1396380", "srk": "0" }, "geometry": { "type": "Point", "coordinates": [ 14.163929968865359, 55.538381033575696 ] } },
{ "type": "Feature", "properties": { "Elfiskelokal_S99TM_N": "6154101", "Elfiskelokal_S99TM_E": "452265", "Elfiskelokal_xkoord_RT90": "6156780", "Elfiskelokal_ykoord_RT90": "1401400", "Vattendragsnamn": "Tommarpsån", "Lokalnamn": "6156780-1401400 Valsmöllan", "link": "https:\/\/aquarapport.slu.se\/default.aspx?ID=98&X=6156780&Y=1401400", "srk": "0" }, "geometry": { "type": "Point", "coordinates": [ 14.2437530902997, 55.530623650672325 ] } },
{ "type": "Feature", "properties": { "Elfiskelokal_S99TM_N": "6154240", "Elfiskelokal_S99TM_E": "453963", "Elfiskelokal_xkoord_RT90": "6156900", "Elfiskelokal_ykoord_RT90": "1403100", "Vattendragsnamn": "Tommarpsån", "Lokalnamn": "6156900-1403100 SV Åkeslund", "link": "https:\/\/aquarapport.slu.se\/default.aspx?ID=98&X=6156900&Y=1403100", "srk": "0" }, "geometry": { "type": "Point", "coordinates": [ 14.270628242125593, 55.53203562323457 ] } },
{ "type": "Feature", "properties": { "Elfiskelokal_S99TM_N": "6154412", "Elfiskelokal_S99TM_E": "451512", "Elfiskelokal_xkoord_RT90": "6157100", "Elfiskelokal_ykoord_RT90": "1400650", "Vattendragsnamn": "Tommarpsån", "Lokalnamn": "6157100-1400650 Västergården", "link": "https:\/\/aquarapport.slu.se\/default.aspx?ID=98&X=6157100&Y=1400650", "srk": "0" }, "geometry": { "type": "Point", "coordinates": [ 14.231770335516876, 55.533343725720535 ] } },
{ "type": "Feature", "properties": { "Elfiskelokal_S99TM_N": "6155470", "Elfiskelokal_S99TM_E": "456598", "Elfiskelokal_xkoord_RT90": "6158100", "Elfiskelokal_ykoord_RT90": "1405750", "Vattendragsnamn": "Tommarpsån", "Lokalnamn": "6158100-1405750 Bjärsjö", "link": "https:\/\/aquarapport.slu.se\/default.aspx?ID=98&X=6158100&Y=1405750", "srk": "0" }, "geometry": { "type": "Point", "coordinates": [ 14.312178633819059, 55.543328522389103 ] } },
{ "type": "Feature", "properties": { "Elfiskelokal_S99TM_N": "6156311", "Elfiskelokal_S99TM_E": "445709", "Elfiskelokal_xkoord_RT90": "6159067", "Elfiskelokal_ykoord_RT90": "1394867", "Vattendragsnamn": "Tommarpsån", "Lokalnamn": "6159067-1394867 Smedstorp", "link": "https:\/\/aquarapport.slu.se\/default.aspx?ID=98&X=6159067&Y=1394867", "srk": "0" }, "geometry": { "type": "Point", "coordinates": [ 14.139467721010112, 55.549794609313892 ] } },
{ "type": "Feature", "properties": { "Elfiskelokal_S99TM_N": "6156407", "Elfiskelokal_S99TM_E": "445854", "Elfiskelokal_xkoord_RT90": "6159162", "Elfiskelokal_ykoord_RT90": "1395013", "Vattendragsnamn": "Tommarpsån", "Lokalnamn": "6159162-1395013 Smedstorp", "link": "https:\/\/aquarapport.slu.se\/default.aspx?ID=98&X=6159162&Y=1395013", "srk": "0" }, "geometry": { "type": "Point", "coordinates": [ 14.141746940209005, 55.550673245166784 ] } },
{ "type": "Feature", "properties": { "Elfiskelokal_S99TM_N": "6156436", "Elfiskelokal_S99TM_E": "445911", "Elfiskelokal_xkoord_RT90": "6159190", "Elfiskelokal_ykoord_RT90": "1395070", "Vattendragsnamn": "Tommarpsån", "Lokalnamn": "6159190-1395070 Smedstorp", "link": "https:\/\/aquarapport.slu.se\/default.aspx?ID=98&X=6159190&Y=1395070", "srk": "0" }, "geometry": { "type": "Point", "coordinates": [ 14.142644646023152, 55.550940121598103 ] } },
{ "type": "Feature", "properties": { "Elfiskelokal_S99TM_N": "6156750", "Elfiskelokal_S99TM_E": "446317", "Elfiskelokal_xkoord_RT90": "6159500", "Elfiskelokal_ykoord_RT90": "1395480", "Vattendragsnamn": "Tommarpsån", "Lokalnamn": "6159500-1395480 Smedstorp", "link": "https:\/\/aquarapport.slu.se\/default.aspx?ID=98&X=6159500&Y=1395480", "srk": "0" }, "geometry": { "type": "Point", "coordinates": [ 14.149018326281134, 55.553806135402013 ] } },
{ "type": "Feature", "properties": { "Elfiskelokal_S99TM_N": "6156959", "Elfiskelokal_S99TM_E": "457420", "Elfiskelokal_xkoord_RT90": "6159580", "Elfiskelokal_ykoord_RT90": "1406590", "Vattendragsnamn": "Tommarpsån", "Lokalnamn": "6159580-1406590 Gröstorp", "link": "https:\/\/aquarapport.slu.se\/default.aspx?ID=98&X=6159580&Y=1406590", "srk": "0" }, "geometry": { "type": "Point", "coordinates": [ 14.324975166964066, 55.556779580325113 ] } },
{ "type": "Feature", "properties": { "Elfiskelokal_S99TM_N": "6157156", "Elfiskelokal_S99TM_E": "446832", "Elfiskelokal_xkoord_RT90": "6159900", "Elfiskelokal_ykoord_RT90": "1396000", "Vattendragsnamn": "Tommarpsån", "Lokalnamn": "6159900-1396000 Nedstr Komstamölla", "link": "https:\/\/aquarapport.slu.se\/default.aspx?ID=98&X=6159900&Y=1396000", "srk": "0" }, "geometry": { "type": "Point", "coordinates": [ 14.15710302273202, 55.557510298907879 ] } },
{ "type": "Feature", "properties": { "Elfiskelokal_S99TM_N": "6157204", "Elfiskelokal_S99TM_E": "444902", "Elfiskelokal_xkoord_RT90": "6159970", "Elfiskelokal_ykoord_RT90": "1394070", "Vattendragsnamn": "Tommarpsån", "Lokalnamn": "6159970-1394070 Gårdslösa ned bron", "link": "https:\/\/aquarapport.slu.se\/default.aspx?ID=98&X=6159970&Y=1394070", "srk": "0" }, "geometry": { "type": "Point", "coordinates": [ 14.126500184563454, 55.557727345697216 ] } },
{ "type": "Feature", "properties": { "Elfiskelokal_S99TM_N": "6158336", "Elfiskelokal_S99TM_E": "445119", "Elfiskelokal_xkoord_RT90": "6161100", "Elfiskelokal_ykoord_RT90": "1394300", "Vattendragsnamn": "Tommarpsån", "Lokalnamn": "6161100-1394300 Listarumsån", "link": "https:\/\/aquarapport.slu.se\/default.aspx?ID=98&X=6161100&Y=1394300", "srk": "0" }, "geometry": { "type": "Point", "coordinates": [ 14.129715155879605, 55.567922323490897 ] } },
{ "type": "Feature", "properties": { "Elfiskelokal_S99TM_N": "6174041", "Elfiskelokal_S99TM_E": "438430", "Elfiskelokal_xkoord_RT90": "6176890", "Elfiskelokal_ykoord_RT90": "1387790", "Vattendragsnamn": "Verkaån", "Lokalnamn": "6176890-1387790 Hallamölla övre", "link": "https:\/\/aquarapport.slu.se\/default.aspx?ID=98&X=6176890&Y=1387790", "srk": "0" }, "geometry": { "type": "Point", "coordinates": [ 14.02014399155782, 55.708219830431609 ] } },
{ "type": "Feature", "properties": { "Elfiskelokal_S99TM_N": "6176066", "Elfiskelokal_S99TM_E": "444933", "Elfiskelokal_xkoord_RT90": "6178840", "Elfiskelokal_ykoord_RT90": "1394320", "Vattendragsnamn": "Verkaån", "Lokalnamn": "6178840-1394320 Bockamöllan", "link": "https:\/\/aquarapport.slu.se\/default.aspx?ID=98&X=6178840&Y=1394320", "srk": "0" }, "geometry": { "type": "Point", "coordinates": [ 14.123214151044964, 55.72719501662047 ] } },
{ "type": "Feature", "properties": { "Elfiskelokal_S99TM_N": "6176173", "Elfiskelokal_S99TM_E": "444652", "Elfiskelokal_xkoord_RT90": "6178950", "Elfiskelokal_ykoord_RT90": "1394040", "Vattendragsnamn": "Verkaån", "Lokalnamn": "6178950-1394040 Bengtemölle", "link": "https:\/\/aquarapport.slu.se\/default.aspx?ID=98&X=6178950&Y=1394040", "srk": "0" }, "geometry": { "type": "Point", "coordinates": [ 14.118718961678153, 55.728124325600007 ] } },
{ "type": "Feature", "properties": { "Elfiskelokal_S99TM_N": "6174043", "Elfiskelokal_S99TM_E": "438550", "Elfiskelokal_xkoord_RT90": "6176890", "Elfiskelokal_ykoord_RT90": "1387910", "Vattendragsnamn": "Verkaån", "Lokalnamn": "6176890-1387910 Nedstr Hallamölla", "link": "https:\/\/aquarapport.slu.se\/default.aspx?ID=98&X=6176890&Y=1387910", "srk": "0" }, "geometry": { "type": "Point", "coordinates": [ 14.02205297075926, 55.708253017583729 ] } },
{ "type": "Feature", "properties": { "Elfiskelokal_S99TM_N": "6174452", "Elfiskelokal_S99TM_E": "439374", "Elfiskelokal_xkoord_RT90": "6177290", "Elfiskelokal_ykoord_RT90": "1388740", "Vattendragsnamn": "Verkaån", "Lokalnamn": "6177290-1388740 15 km N Eljaröd", "link": "https:\/\/aquarapport.slu.se\/default.aspx?ID=98&X=6177290&Y=1388740", "srk": "0" }, "geometry": { "type": "Point", "coordinates": [ 14.035073869727128, 55.712031215082966 ] } },
{ "type": "Feature", "properties": { "Elfiskelokal_S99TM_N": "6175277", "Elfiskelokal_S99TM_E": "448441", "Elfiskelokal_xkoord_RT90": "6178010", "Elfiskelokal_ykoord_RT90": "1397820", "Vattendragsnamn": "Verkaån", "Lokalnamn": "6178010-1397820 Uppstr Öradekaren", "link": "https:\/\/aquarapport.slu.se\/default.aspx?ID=98&X=6178010&Y=1397820", "srk": "0" }, "geometry": { "type": "Point", "coordinates": [ 14.179211157001873, 55.720492195699947 ] } },
{ "type": "Feature", "properties": { "Elfiskelokal_S99TM_N": "6175147", "Elfiskelokal_S99TM_E": "435568", "Elfiskelokal_xkoord_RT90": "6178030", "Elfiskelokal_ykoord_RT90": "1384940", "Vattendragsnamn": "Verkaån", "Lokalnamn": "6178030-1384940 Kristinehov", "link": "https:\/\/aquarapport.slu.se\/default.aspx?ID=98&X=6178030&Y=1384940", "srk": "0" }, "geometry": { "type": "Point", "coordinates": [ 13.974344374850471, 55.717784284109477 ] } },
{ "type": "Feature", "properties": { "Elfiskelokal_S99TM_N": "6175210", "Elfiskelokal_S99TM_E": "440935", "Elfiskelokal_xkoord_RT90": "6178030", "Elfiskelokal_ykoord_RT90": "1390310", "Vattendragsnamn": "Verkaån", "Lokalnamn": "6178030-1390310 Ådala", "link": "https:\/\/aquarapport.slu.se\/default.aspx?ID=98&X=6178030&Y=1390310", "srk": "0" }, "geometry": { "type": "Point", "coordinates": [ 14.05975143999844, 55.719033847510268 ] } },
{ "type": "Feature", "properties": { "Elfiskelokal_S99TM_N": "6175383", "Elfiskelokal_S99TM_E": "448979", "Elfiskelokal_xkoord_RT90": "6178110", "Elfiskelokal_ykoord_RT90": "1398360", "Vattendragsnamn": "Verkaån", "Lokalnamn": "6178110-1398360 Haväng ny 2011", "link": "https:\/\/aquarapport.slu.se\/default.aspx?ID=98&X=6178110&Y=1398360", "srk": "0" }, "geometry": { "type": "Point", "coordinates": [ 14.187755062531011, 55.721501469229302 ] } },
{ "type": "Feature", "properties": { "Elfiskelokal_S99TM_N": "6175395", "Elfiskelokal_S99TM_E": "449129", "Elfiskelokal_xkoord_RT90": "6178120", "Elfiskelokal_ykoord_RT90": "1398510", "Vattendragsnamn": "Verkaån", "Lokalnamn": "6178120-1398510 Haväng", "link": "https:\/\/aquarapport.slu.se\/default.aspx?ID=98&X=6178120&Y=1398510", "srk": "0" }, "geometry": { "type": "Point", "coordinates": [ 14.190140535678392, 55.721625047205428 ] } },
{ "type": "Feature", "properties": { "Elfiskelokal_S99TM_N": "6175661", "Elfiskelokal_S99TM_E": "446217", "Elfiskelokal_xkoord_RT90": "6178420", "Elfiskelokal_ykoord_RT90": "1395600", "Vattendragsnamn": "Verkaån", "Lokalnamn": "6178420-1395600 Järnvägsbron", "link": "https:\/\/aquarapport.slu.se\/default.aspx?ID=98&X=6178420&Y=1395600", "srk": "0" }, "geometry": { "type": "Point", "coordinates": [ 14.143735248846395, 55.723700547160178 ] } },
{ "type": "Feature", "properties": { "Elfiskelokal_S99TM_N": "6176070", "Elfiskelokal_S99TM_E": "434948", "Elfiskelokal_xkoord_RT90": "6178960", "Elfiskelokal_ykoord_RT90": "1384330", "Vattendragsnamn": "Verkaån", "Lokalnamn": "6178960-1384330 Kristinehov väg mot", "link": "https:\/\/aquarapport.slu.se\/default.aspx?ID=98&X=6178960&Y=1384330", "srk": "0" }, "geometry": { "type": "Point", "coordinates": [ 13.964257301353765, 55.725993617243638 ] } },
{ "type": "Feature", "properties": { "Elfiskelokal_S99TM_N": "6176727", "Elfiskelokal_S99TM_E": "443326", "Elfiskelokal_xkoord_RT90": "6179520", "Elfiskelokal_ykoord_RT90": "1392720", "Vattendragsnamn": "Verkaån", "Lokalnamn": "6179520-1392720 Trulsbo", "link": "https:\/\/aquarapport.slu.se\/default.aspx?ID=98&X=6179520&Y=1392720", "srk": "0" }, "geometry": { "type": "Point", "coordinates": [ 14.097493752399894, 55.732948336679378 ] } },
{ "type": "Feature", "properties": { "Elfiskelokal_S99TM_N": "6175063", "Elfiskelokal_S99TM_E": "435159", "Elfiskelokal_xkoord_RT90": "6177950", "Elfiskelokal_ykoord_RT90": "1384530", "Vattendragsnamn": "Verkaån bf", "Lokalnamn": "6177950-1384530 Borstakärr Skoghem", "link": "https:\/\/aquarapport.slu.se\/default.aspx?ID=98&X=6177950&Y=1384530", "srk": "0" }, "geometry": { "type": "Point", "coordinates": [ 13.967854824515383, 55.716975109133323 ] } },
{ "type": "Feature", "properties": { "Elfiskelokal_S99TM_N": "6175106", "Elfiskelokal_S99TM_E": "433759", "Elfiskelokal_xkoord_RT90": "6178010", "Elfiskelokal_ykoord_RT90": "1383130", "Vattendragsnamn": "Verkaån bf", "Lokalnamn": "6178010-1383130 Borstakärr Vilthägn", "link": "https:\/\/aquarapport.slu.se\/default.aspx?ID=98&X=6178010&Y=1383130", "srk": "0" }, "geometry": { "type": "Point", "coordinates": [ 13.945563274908473, 55.717172162710028 ] } },
{ "type": "Feature", "properties": { "Elfiskelokal_S99TM_N": "6175176", "Elfiskelokal_S99TM_E": "435418", "Elfiskelokal_xkoord_RT90": "6178060", "Elfiskelokal_ykoord_RT90": "1384790", "Vattendragsnamn": "Verkaån bf", "Lokalnamn": "6178060-1384790 Borstakärr Almbruket", "link": "https:\/\/aquarapport.slu.se\/default.aspx?ID=98&X=6178060&Y=1384790", "srk": "0" }, "geometry": { "type": "Point", "coordinates": [ 13.971950199167747, 55.718024859821789 ] } },
{ "type": "Feature", "properties": { "Elfiskelokal_S99TM_N": "6175283", "Elfiskelokal_S99TM_E": "434317", "Elfiskelokal_xkoord_RT90": "6178180", "Elfiskelokal_ykoord_RT90": "1383690", "Vattendragsnamn": "Verkaån bf", "Lokalnamn": "6178180-1383690 Borstakärr V slottet", "link": "https:\/\/aquarapport.slu.se\/default.aspx?ID=98&X=6178180&Y=1383690", "srk": "0" }, "geometry": { "type": "Point", "coordinates": [ 13.95440147562919, 55.71883822190604 ] } },
{ "type": "Feature", "properties": { "Elfiskelokal_S99TM_N": "6175309", "Elfiskelokal_S99TM_E": "434816", "Elfiskelokal_xkoord_RT90": "6178200", "Elfiskelokal_ykoord_RT90": "1384190", "Vattendragsnamn": "Verkaån bf", "Lokalnamn": "6178200-1384190 Borstakärr skjutbana", "link": "https:\/\/aquarapport.slu.se\/default.aspx?ID=98&X=6178200&Y=1384190", "srk": "0" }, "geometry": { "type": "Point", "coordinates": [ 13.962337326314923, 55.719139151859885 ] } },
{ "type": "Feature", "properties": { "Elfiskelokal_S99TM_N": "6175338", "Elfiskelokal_S99TM_E": "434796", "Elfiskelokal_xkoord_RT90": "6178230", "Elfiskelokal_ykoord_RT90": "1384170", "Vattendragsnamn": "Verkaån bf", "Lokalnamn": "6178230-1384170 Borstakärr Skjutbana", "link": "https:\/\/aquarapport.slu.se\/default.aspx?ID=98&X=6178230&Y=1384170", "srk": "0" }, "geometry": { "type": "Point", "coordinates": [ 13.962012095316007, 55.719396994924416 ] } }
]
}
